[
  {
    "route": "542",
    "direction": 0,
    "stops": [
      {
        "name": "捷運圓山站",
        "lat": 25.069744,
        "lon": 121.520216,
        "sequence": 1
      },
      {
        "name": "花博公園",
        "lat": 25.06836964371407,
        "lon": 121.5219958317649,
        "sequence": 2
      },
      {
        "name": "大同大學",
        "lat": 25.06834316,
        "lon": 121.5242636,
        "sequence": 3
      },
      {
        "name": "吉林路底",
        "lat": 25.0671439681624,
        "lon": 121.530399427523,
        "sequence": 4
      },
      {
        "name": "農安街吉林路口",
        "lat": 25.06478877,
        "lon": 121.5306207,
        "sequence": 5
      },
      {
        "name": "中山區公所",
        "lat": 25.06471,
        "lon": 121.53409,
        "sequence": 6
      },
      {
        "name": "臺北漁市",
        "lat": 25.06585474,
        "lon": 121.5368048,
        "sequence": 7
      },
      {
        "name": "濱江商圈",
        "lat": 25.06605,
        "lon": 121.53905,
        "sequence": 8
      },
      {
        "name": "復興北村",
        "lat": 25.06497867,
        "lon": 121.5441547,
        "sequence": 9
      },
      {
        "name": "五常街口",
        "lat": 25.06369319,
        "lon": 121.5440531,
        "sequence": 10
      },
      {
        "name": "捷運中山國中站",
        "lat": 25.06148096,
        "lon": 121.5440343,
        "sequence": 11
      }
    ]
  },
  {
    "route": "542",
    "direction": 1,
    "stops": [
      {
        "name": "龍江路口",
        "lat": 25.06090008,
        "lon": 121.5408185,
        "sequence": 1
      },
      {
        "name": "五常國小",
        "lat": 25.06401,
        "lon": 121.54096,
        "sequence": 2
      },
      {
        "name": "濱江商圈",
        "lat": 25.06611465,
        "lon": 121.5394645,
        "sequence": 3
      },
      {
        "name": "臺北漁市",
        "lat": 25.06614272,
        "lon": 121.5370488,
        "sequence": 4
      },
      {
        "name": "中山區公所",
        "lat": 25.06481353,
        "lon": 121.5336228,
        "sequence": 5
      },
      {
        "name": "農安街吉林路口",
        "lat": 25.06487895,
        "lon": 121.5306212,
        "sequence": 6
      },
      {
        "name": "農安街",
        "lat": 25.06493634,
        "lon": 121.5286595,
        "sequence": 7
      },
      {
        "name": "稻江護校",
        "lat": 25.066076,
        "lon": 121.528089,
        "sequence": 8
      },
      {
        "name": "民族東路口",
        "lat": 25.06761882553957,
        "lon": 121.52804750361558,
        "sequence": 9
      },
      {
        "name": "大同大學",
        "lat": 25.06857831,
        "lon": 121.5239878,
        "sequence": 10
      },
      {
        "name": "花博公園",
        "lat": 25.0685957947607,
        "lon": 121.520798366208,
        "sequence": 11
      },
      {
        "name": "捷運圓山站",
        "lat": 25.069744,
        "lon": 121.520216,
        "sequence": 12
      }
    ]
  },
  {
    "route": "542",
    "direction": 0,
    "stops": [
      {
        "name": "捷運圓山站",
        "lat": 25.069744,
        "lon": 121.520216,
        "sequence": 1
      },
      {
        "name": "花博公園",
        "lat": 25.06836964371407,
        "lon": 121.5219958317649,
        "sequence": 2
      },
      {
        "name": "大同大學",
        "lat": 25.06834316,
        "lon": 121.5242636,
        "sequence": 3
      },
      {
        "name": "吉林路底",
        "lat": 25.0671439681624,
        "lon": 121.530399427523,
        "sequence": 4
      },
      {
        "name": "農安街吉林路口",
        "lat": 25.06478877,
        "lon": 121.5306207,
        "sequence": 5
      },
      {
        "name": "中山區公所",
        "lat": 25.06471,
        "lon": 121.53409,
        "sequence": 6
      },
      {
        "name": "臺北漁市",
        "lat": 25.06585474,
        "lon": 121.5368048,
        "sequence": 7
      },
      {
        "name": "濱江商圈",
        "lat": 25.06605,
        "lon": 121.53905,
        "sequence": 8
      },
      {
        "name": "復興北村",
        "lat": 25.06497867,
        "lon": 121.5441547,
        "sequence": 9
      },
      {
        "name": "五常街口",
        "lat": 25.06369319,
        "lon": 121.5440531,
        "sequence": 10
      },
      {
        "name": "捷運中山國中站",
        "lat": 25.06148096,
        "lon": 121.5440343,
        "sequence": 11
      }
    ]
  },
  {
    "route": "542",
    "direction": 1,
    "stops": [
      {
        "name": "龍江路口",
        "lat": 25.06090008,
        "lon": 121.5408185,
        "sequence": 1
      },
      {
        "name": "五常國小",
        "lat": 25.06401,
        "lon": 121.54096,
        "sequence": 2
      },
      {
        "name": "濱江商圈",
        "lat": 25.06611465,
        "lon": 121.5394645,
        "sequence": 3
      },
      {
        "name": "臺北漁市",
        "lat": 25.06614272,
        "lon": 121.5370488,
        "sequence": 4
      },
      {
        "name": "中山區公所",
        "lat": 25.06481353,
        "lon": 121.5336228,
        "sequence": 5
      },
      {
        "name": "農安街吉林路口",
        "lat": 25.06487895,
        "lon": 121.5306212,
        "sequence": 6
      },
      {
        "name": "農安街",
        "lat": 25.06493634,
        "lon": 121.5286595,
        "sequence": 7
      },
      {
        "name": "稻江護校",
        "lat": 25.066076,
        "lon": 121.528089,
        "sequence": 8
      },
      {
        "name": "民族東路口",
        "lat": 25.06761882553957,
        "lon": 121.52804750361558,
        "sequence": 9
      },
      {
        "name": "大同大學",
        "lat": 25.06857831,
        "lon": 121.5239878,
        "sequence": 10
      },
      {
        "name": "花博公園",
        "lat": 25.0685957947607,
        "lon": 121.520798366208,
        "sequence": 11
      },
      {
        "name": "捷運圓山站",
        "lat": 25.069744,
        "lon": 121.520216,
        "sequence": 12
      }
    ]
  },
  {
    "route": "542",
    "direction": 0,
    "stops": [
      {
        "name": "民族西路",
        "lat": 25.06858641,
        "lon": 121.5127488,
        "sequence": 1
      },
      {
        "name": "捷運圓山站",
        "lat": 25.069744,
        "lon": 121.520216,
        "sequence": 2
      },
      {
        "name": "花博公園",
        "lat": 25.06836964371407,
        "lon": 121.5219958317649,
        "sequence": 3
      },
      {
        "name": "大同大學",
        "lat": 25.06834316,
        "lon": 121.5242636,
        "sequence": 4
      },
      {
        "name": "吉林路底",
        "lat": 25.0671439681624,
        "lon": 121.530399427523,
        "sequence": 5
      },
      {
        "name": "農安街吉林路口",
        "lat": 25.06478877,
        "lon": 121.5306207,
        "sequence": 6
      },
      {
        "name": "中山區公所",
        "lat": 25.06471,
        "lon": 121.53409,
        "sequence": 7
      },
      {
        "name": "臺北漁市",
        "lat": 25.06585474,
        "lon": 121.5368048,
        "sequence": 8
      },
      {
        "name": "濱江商圈",
        "lat": 25.06605,
        "lon": 121.53905,
        "sequence": 9
      },
      {
        "name": "復興北村",
        "lat": 25.06497867,
        "lon": 121.5441547,
        "sequence": 10
      },
      {
        "name": "五常街口",
        "lat": 25.06369319,
        "lon": 121.5440531,
        "sequence": 11
      },
      {
        "name": "捷運中山國中站",
        "lat": 25.06148096,
        "lon": 121.5440343,
        "sequence": 12
      }
    ]
  },
  {
    "route": "542",
    "direction": 0,
    "stops": [
      {
        "name": "民族西路",
        "lat": 25.06858641,
        "lon": 121.5127488,
        "sequence": 1
      },
      {
        "name": "捷運圓山站",
        "lat": 25.069744,
        "lon": 121.520216,
        "sequence": 2
      },
      {
        "name": "花博公園",
        "lat": 25.06836964371407,
        "lon": 121.5219958317649,
        "sequence": 3
      },
      {
        "name": "大同大學",
        "lat": 25.06834316,
        "lon": 121.5242636,
        "sequence": 4
      },
      {
        "name": "吉林路底",
        "lat": 25.0671439681624,
        "lon": 121.530399427523,
        "sequence": 5
      },
      {
        "name": "農安街吉林路口",
        "lat": 25.06478877,
        "lon": 121.5306207,
        "sequence": 6
      },
      {
        "name": "中山區公所",
        "lat": 25.06471,
        "lon": 121.53409,
        "sequence": 7
      },
      {
        "name": "臺北漁市",
        "lat": 25.06585474,
        "lon": 121.5368048,
        "sequence": 8
      },
      {
        "name": "濱江商圈",
        "lat": 25.06605,
        "lon": 121.53905,
        "sequence": 9
      },
      {
        "name": "復興北村",
        "lat": 25.06497867,
        "lon": 121.5441547,
        "sequence": 10
      },
      {
        "name": "五常街口",
        "lat": 25.06369319,
        "lon": 121.5440531,
        "sequence": 11
      },
      {
        "name": "捷運中山國中站",
        "lat": 25.06148096,
        "lon": 121.5440343,
        "sequence": 12
      }
    ]
  },
  {
    "route": "542",
    "direction": 1,
    "stops": [
      {
        "name": "龍江路口",
        "lat": 25.06090008,
        "lon": 121.5408185,
        "sequence": 1
      },
      {
        "name": "五常國小",
        "lat": 25.06401,
        "lon": 121.54096,
        "sequence": 2
      },
      {
        "name": "濱江商圈",
        "lat": 25.06611465,
        "lon": 121.5394645,
        "sequence": 3
      },
      {
        "name": "臺北漁市",
        "lat": 25.06614272,
        "lon": 121.5370488,
        "sequence": 4
      },
      {
        "name": "中山區公所",
        "lat": 25.06481353,
        "lon": 121.5336228,
        "sequence": 5
      },
      {
        "name": "農安街吉林路口",
        "lat": 25.06487895,
        "lon": 121.5306212,
        "sequence": 6
      },
      {
        "name": "農安街",
        "lat": 25.06493634,
        "lon": 121.5286595,
        "sequence": 7
      },
      {
        "name": "稻江護校",
        "lat": 25.066076,
        "lon": 121.528089,
        "sequence": 8
      },
      {
        "name": "民族東路口",
        "lat": 25.06761882553957,
        "lon": 121.52804750361558,
        "sequence": 9
      },
      {
        "name": "大同大學",
        "lat": 25.06857831,
        "lon": 121.5239878,
        "sequence": 10
      },
      {
        "name": "花博公園",
        "lat": 25.0685957947607,
        "lon": 121.520798366208,
        "sequence": 11
      },
      {
        "name": "捷運圓山站",
        "lat": 25.069744,
        "lon": 121.520216,
        "sequence": 12
      },
      {
        "name": "蘭州國中",
        "lat": 25.06869,
        "lon": 121.51625,
        "sequence": 13
      }
    ]
  },
  {
    "route": "542預",
    "direction": 0,
    "stops": [
      {
        "name": "捷運圓山站",
        "lat": 25.069744,
        "lon": 121.520216,
        "sequence": 1
      },
      {
        "name": "花博公園",
        "lat": 25.06836964371407,
        "lon": 121.5219958317649,
        "sequence": 2
      },
      {
        "name": "大同大學",
        "lat": 25.06834316,
        "lon": 121.5242636,
        "sequence": 3
      },
      {
        "name": "吉林路底",
        "lat": 25.0671439681624,
        "lon": 121.530399427523,
        "sequence": 4
      },
      {
        "name": "農安街吉林路口",
        "lat": 25.06478877,
        "lon": 121.5306207,
        "sequence": 5
      },
      {
        "name": "中山區公所",
        "lat": 25.06471,
        "lon": 121.53409,
        "sequence": 6
      },
      {
        "name": "臺北漁市",
        "lat": 25.06585474,
        "lon": 121.5368048,
        "sequence": 7
      },
      {
        "name": "濱江商圈",
        "lat": 25.06605,
        "lon": 121.53905,
        "sequence": 8
      },
      {
        "name": "復興北村",
        "lat": 25.06497867,
        "lon": 121.5441547,
        "sequence": 9
      },
      {
        "name": "五常街口",
        "lat": 25.06369319,
        "lon": 121.5440531,
        "sequence": 10
      },
      {
        "name": "捷運中山國中站",
        "lat": 25.06148096,
        "lon": 121.5440343,
        "sequence": 11
      }
    ]
  },
  {
    "route": "542預",
    "direction": 1,
    "stops": [
      {
        "name": "龍江路口",
        "lat": 25.06090008,
        "lon": 121.5408185,
        "sequence": 1
      },
      {
        "name": "五常國小",
        "lat": 25.06401,
        "lon": 121.54096,
        "sequence": 2
      },
      {
        "name": "行仁里",
        "lat": 25.06578312,
        "lon": 121.5410055,
        "sequence": 3
      },
      {
        "name": "濱江商圈",
        "lat": 25.06611465,
        "lon": 121.5394645,
        "sequence": 4
      },
      {
        "name": "臺北漁市",
        "lat": 25.06614272,
        "lon": 121.5370488,
        "sequence": 5
      },
      {
        "name": "中山區公所",
        "lat": 25.06481353,
        "lon": 121.5336228,
        "sequence": 6
      },
      {
        "name": "農安街吉林路口",
        "lat": 25.06487895,
        "lon": 121.5306212,
        "sequence": 7
      },
      {
        "name": "農安街",
        "lat": 25.06493634,
        "lon": 121.5286595,
        "sequence": 8
      },
      {
        "name": "稻江護校",
        "lat": 25.066076,
        "lon": 121.528089,
        "sequence": 9
      },
      {
        "name": "民族東路口",
        "lat": 25.06761882553957,
        "lon": 121.52804750361558,
        "sequence": 10
      },
      {
        "name": "大同大學",
        "lat": 25.06857831,
        "lon": 121.5239878,
        "sequence": 11
      },
      {
        "name": "花博公園",
        "lat": 25.0685957947607,
        "lon": 121.520798366208,
        "sequence": 12
      },
      {
        "name": "捷運圓山站",
        "lat": 25.069744,
        "lon": 121.520216,
        "sequence": 13
      }
    ]
  }
]